[{"id":"hotels1","category":"hotels","rank":1,"name":"Tulemar Bungalows & Villas","location":"Manuel Antonio, Costa Rica","imageurl":"https:\/\/media-cdn.tripadvisor.com\/media\/photo-s\/16\/28\/90\/5a\/tulemar-bungalows-villas.jpg","description":"The perfect vacation. The best part was simply chilling on our veranda, looking out at the ocean, watching parrots fly past.","latitude":9.4107288,"longitude":-84.1557625,"rate":5,"total_reviews":"4,970","excellent":"4,777","very_good":144,"average":29,"poor":14,"terrible":6},{"id":"hotels2","category":"hotels","rank":2,"name":"Hotel Colline de France","location":"Gramado, Brazil","imageurl":"https:\/\/media-cdn.tripadvisor.com\/media\/photo-w\/1c\/ef\/97\/6c\/caption.jpg","description":"Whether on a honeymoon or family vacation, you will fall in love with the hotel. It\u2019s very nice, but what makes it truly special is not the expensive decor, it\u2019s the staff!","latitude":-29.3787488,"longitude":-50.8724941,"rate":5,"total_reviews":"3,039","excellent":"3,033","very_good":6,"average":0,"poor":0,"terrible":0},{"id":"hotels3","category":"hotels","rank":3,"name":"Ikos Aria","location":"Kefalos, Greece","imageurl":"https:\/\/media-cdn.tripadvisor.com\/media\/photo-s\/1a\/d2\/e2\/e3\/ikos-aria.jpg","description":"An absolutely beautiful hotel in the most stunning of locations. With immaculately kept grounds, a wide sandy beach, crystal clear seas and views of the beautiful island.","latitude":36.7450224,"longitude":26.9595207,"rate":5,"total_reviews":"1,928","excellent":"1,902","very_good":21,"average":5,"poor":0,"terrible":0},{"id":"hotels4","category":"hotels","rank":4,"name":"Romance Istanbul Hotel","location":"Istanbul, Turkiye","imageurl":"https:\/\/media-cdn.tripadvisor.com\/media\/photo-s\/16\/8d\/a7\/19\/romance-istanbul-hotel.jpg","description":"The geographical location is one thing, however this boutique hotel really excels at hospitality. Everyone was very friendly, the rooms were very clean and all of your wishes are fulfilled instantly.","latitude":41.0091982,"longitude":28.9662187,"rate":5,"total_reviews":"3,290","excellent":"3,237","very_good":46,"average":5,"poor":1,"terrible":1},{"id":"hotels5","category":"hotels","rank":5,"name":"THE OMNIA","location":"Zermatt, Switzerland","imageurl":"https:\/\/media-cdn.tripadvisor.com\/media\/photo-s\/1c\/78\/91\/a8\/the-omnia.jpg","description":"Everything was perfect: the Bond-like cave entrance, the view from the terrace, the indoor\/outdoor spa, the sensational service, the whisky selection, the unbelievable schnitzel\u2026","latitude":46.0212076,"longitude":7.749254,"rate":5,"total_reviews":"1,372","excellent":"1,320","very_good":38,"average":9,"poor":5,"terrible":0},{"id":"hotels6","category":"hotels","rank":6,"name":"Kayakapi Premium Caves - Cappadocia","location":"Urgup, Turkiye","imageurl":"https:\/\/media-cdn.tripadvisor.com\/media\/photo-s\/1a\/7d\/f8\/33\/images-largejpg.jpg","description":"It felt so special to not only stay in an original cave home, but also to experience the luxurious touches the hotel had added.","latitude":38.6300508,"longitude":34.9116025,"rate":5,"total_reviews":"2,182","excellent":"2,047","very_good":116,"average":15,"poor":4,"terrible":2},{"id":"hotels7","category":"hotels","rank":7,"name":"Six Senses Laamu","location":"Olhuveli Island, Maldives","imageurl":"https:\/\/media-cdn.tripadvisor.com\/media\/photo-s\/24\/41\/dc\/3a\/hotel-exterior.jpg","description":"We were encouraged to go barefoot and it helped us feel connected to the earth. Loved stepping off our deck directly into the ocean to snorkel where the waters are teeming with beautiful marine life.","latitude":29.689689,"longitude":-85.290566,"rate":5,"total_reviews":"3,630","excellent":"3,431","very_good":150,"average":41,"poor":7,"terrible":2},{"id":"hotels8","category":"hotels","rank":8,"name":"Hamanasi Adventure and Dive Resort","location":"Hopkins, Belize","imageurl":"https:\/\/media-cdn.tripadvisor.com\/media\/photo-s\/09\/80\/9d\/d7\/hamanasi-adventure-and.jpg","description":"The service is really amazing. We thought they had all been sent to charm school. We've recommended this place to our friends and even our enemies.","latitude":16.8636325,"longitude":-88.2849352,"rate":5,"total_reviews":"2,893","excellent":"2,805","very_good":75,"average":5,"poor":4,"terrible":4},{"id":"hotels9","category":"hotels","rank":9,"name":"Padma Resort Ubud","location":"Payangan, Indonesia","imageurl":"https:\/\/media-cdn.tripadvisor.com\/media\/photo-s\/0e\/a6\/c9\/70\/premier-twin-romm.jpg","description":"Wow just wow! The setting and location are just breathtaking! As soon as you set foot in the lounge, you are taken by the views of the beautiful jungle.","latitude":-8.4252668,"longitude":115.2455213,"rate":5,"total_reviews":"4,617","excellent":"4,382","very_good":180,"average":34,"poor":9,"terrible":12},{"id":"hotels10","category":"hotels","rank":10,"name":"BLESS Hotel Madrid","location":"Madrid, Spain","imageurl":"https:\/\/media-cdn.tripadvisor.com\/media\/photo-s\/18\/02\/3f\/30\/bar.jpg","description":"Not only is the place classy, elegant, and dynamic, the staff is also top class. They made sure that our time at Bless was unique, memorable and unmatchable.","latitude":40.4167047,"longitude":-3.7035825,"rate":5,"total_reviews":"638","excellent":"574","very_good":29,"average":17,"poor":7,"terrible":11},{"id":"hotels11","category":"hotels","rank":11,"name":"Ikos Dassia","location":"Dassia, Greece","imageurl":"https:\/\/media-cdn.tripadvisor.com\/media\/photo-s\/1a\/e3\/a4\/c2\/ikos-dassia.jpg","description":"The staff can\u2019t seem to do enough for you, the restaurants, including the buffet, are very good, the place is spotless and the facilities are second to none.","latitude":39.6800271,"longitude":19.837897,"rate":5,"total_reviews":"3,094","excellent":"2,996","very_good":85,"average":14,"poor":0,"terrible":0},{"id":"hotels12","category":"hotels","rank":12,"name":"Pimalai Resort and Spa","location":"Ko Lanta, Krabi Province","imageurl":"https:\/\/media-cdn.tripadvisor.com\/media\/photo-s\/21\/ac\/43\/cf\/beach.jpg","description":"Brilliant experience","latitude":7.5310204,"longitude":99.0943842,"rate":5,"total_reviews":"3,265","excellent":"2,842","very_good":307,"average":64,"poor":41,"terrible":12},{"id":"hotels13","category":"hotels","rank":13,"name":"Lotte Hotel Hanoi","location":"Hanoi, Vietnam","imageurl":"https:\/\/media-cdn.tripadvisor.com\/media\/photo-s\/1b\/cb\/0e\/eb\/relaxation-room-evian.jpg","description":"Sensational service - world class","latitude":21.0294498,"longitude":105.8544441,"rate":5,"total_reviews":"2,273","excellent":"2,065","very_good":169,"average":20,"poor":11,"terrible":7},{"id":"hotels14","category":"hotels","rank":14,"name":"COMO Cocoa Island","location":"Cocoa Island, Maldives","imageurl":"https:\/\/media-cdn.tripadvisor.com\/media\/photo-s\/24\/9c\/cb\/5e\/como-cci-aerial-como.jpg","description":"Perfect - a home away from home!","latitude":3.917766,"longitude":73.4695532974,"rate":5,"total_reviews":"1,678","excellent":"1,559","very_good":88,"average":26,"poor":4,"terrible":1},{"id":"hotels15","category":"hotels","rank":15,"name":"La Maison Favart","location":"Paris, France","imageurl":"https:\/\/media-cdn.tripadvisor.com\/media\/photo-s\/23\/e4\/84\/cb\/exterior-view.jpg","description":"Absolutely great in every way! Very friendly and attentive staff, beautifully decorated rooms, a nice spa and very centrally located.","latitude":48.8534951,"longitude":2.3483915,"rate":5,"total_reviews":"2,119","excellent":"1,765","very_good":291,"average":48,"poor":9,"terrible":6},{"id":"hotels16","category":"hotels","rank":16,"name":"Sukhumvit Park, Bangkok - Marriott Executive Apartments","location":"Bangkok, Thailand","imageurl":"https:\/\/media-cdn.tripadvisor.com\/media\/photo-s\/27\/8e\/53\/1b\/leisure-moment-at-outdoor.jpg","description":"Super hospitality","latitude":13.7524938,"longitude":100.4935089,"rate":5,"total_reviews":"1,951","excellent":"1,616","very_good":275,"average":43,"poor":11,"terrible":6},{"id":"hotels17","category":"hotels","rank":17,"name":"Quinta Jardins do Lago","location":"Funchal, Portugal","imageurl":"https:\/\/media-cdn.tripadvisor.com\/media\/photo-s\/17\/91\/c0\/6b\/20190514-145624-largejpg.jpg","description":"As near perfection as one could reasonably expect: quality and attention to detail; friendly, quietly efficient, but not intrusive, service; beautiful gardens and a delightful pool.","latitude":32.6496497,"longitude":-16.9086783,"rate":5,"total_reviews":"2,394","excellent":"2,223","very_good":151,"average":17,"poor":1,"terrible":2},{"id":"hotels18","category":"hotels","rank":18,"name":"La Maison Arabe","location":"Marrakech, Morocco","imageurl":"https:\/\/media-cdn.tripadvisor.com\/media\/photo-s\/18\/e4\/5a\/db\/la-maison-arabe.jpg","description":"Stay here and have an amazing trip!","latitude":31.6258257,"longitude":-7.9891608,"rate":5,"total_reviews":"3,292","excellent":"2,865","very_good":127,"average":15,"poor":7,"terrible":7},{"id":"hotels19","category":"hotels","rank":19,"name":"The Royal Purnama","location":"Sukawati, Indonesia","imageurl":"https:\/\/media-cdn.tripadvisor.com\/media\/photo-w\/1c\/b5\/3f\/0a\/the-royal-purnama.jpg","description":"A perfect relaxing and inspiring hotel, a must!","latitude":-8.5961547,"longitude":115.2820391,"rate":5,"total_reviews":"701","excellent":"623","very_good":57,"average":15,"poor":3,"terrible":3},{"id":"hotels20","category":"hotels","rank":20,"name":"Jaya House River Park","location":"Siem Reap, Cambodia","imageurl":"https:\/\/media-cdn.tripadvisor.com\/media\/photo-s\/0e\/17\/f6\/4b\/jaya-house-river-park.jpg","description":"Laidback luxury\u2026genuinely friendly not fake fussy.","latitude":13.3617562,"longitude":103.8590321,"rate":5,"total_reviews":"3,066","excellent":"3,043","very_good":22,"average":2,"poor":0,"terrible":0},{"id":"hotels21","category":"hotels","rank":21,"name":"The Hazelton Hotel","location":"Toronto, Ontario","imageurl":"https:\/\/media-cdn.tripadvisor.com\/media\/photo-s\/26\/5a\/f4\/88\/tht.jpg","description":"Welcoming Staff, Great Location","latitude":43.6534817,"longitude":-79.3839347,"rate":5,"total_reviews":"1,446","excellent":"1,338","very_good":63,"average":24,"poor":11,"terrible":10},{"id":"hotels22","category":"hotels","rank":22,"name":"Round Hill Hotel and Villas","location":"Hopewell, Jamaica","imageurl":"https:\/\/media-cdn.tripadvisor.com\/media\/photo-s\/27\/be\/93\/a2\/round-hill-hotel-and.jpg","description":"Spectacular!","latitude":18.4568429,"longitude":-78.0119125,"rate":5,"total_reviews":"1,737","excellent":"1,493","very_good":144,"average":56,"poor":26,"terrible":18},{"id":"hotels23","category":"hotels","rank":23,"name":"Saraye Ameriha Boutique Hotel","location":"Kashan, Iran","imageurl":"https:\/\/media-cdn.tripadvisor.com\/media\/photo-s\/07\/05\/8d\/3b\/main-yard-atnight.jpg","description":"Lovely ,nice ,traditional hotel in Kashan","latitude":33.9876533,"longitude":51.4428856,"rate":5,"total_reviews":"896","excellent":"821","very_good":54,"average":10,"poor":8,"terrible":3},{"id":"hotels24","category":"hotels","rank":24,"name":"Bucuti & Tara Beach Resort Aruba","location":"Palm - Eagle Beach, Aruba","imageurl":"https:\/\/media-cdn.tripadvisor.com\/media\/photo-s\/12\/36\/69\/27\/bucuti-tara-beach-resort.jpg","description":"The resort is beautiful, the service outstanding, and the wide, white sand beach is stunning.\u00a0The staff made us feel special and pampered all week.","latitude":12.57401,"longitude":-70.040455,"rate":5,"total_reviews":"8,508","excellent":"7,673","very_good":604,"average":146,"poor":52,"terrible":33},{"id":"hotels25","category":"hotels","rank":25,"name":"The Oberoi Beach Resort Sahl Hasheesh","location":"Hurghada, Egypt","imageurl":"https:\/\/media-cdn.tripadvisor.com\/media\/photo-s\/1b\/35\/34\/b2\/recreational-facilities.jpg","description":"Amazing place","latitude":27.222556,"longitude":33.8307062,"rate":5,"total_reviews":"2,209","excellent":"1,992","very_good":139,"average":40,"poor":21,"terrible":17}]